{
  "result": [{
    "lng": "127.948768222583",
    "title": "국립충주기상과학관",
    "lat": "36.9856858899357",
  }, {
    "lng": "127.637340251904",
    "title": "산모랭이 풀내음 농장",
    "lat": "36.511032728211",
     }, {
    "lng": "128.370751882825",
    "title": "다누리센터",
    "lat": "36.9854106363708",
    }, {
    "lng": "127.478379",
    "title": "청주시립미술관",
    "lat": "36.634836",
     }, {
    "lng": "127.70062173644754",
    "title": "청주 동보원자연휴양림",
    "lat": "36.658812192101784",
    }, {
    "lng": "127.748100",
    "title": "문광 저수지 은행나무길",
    "lat": "36.766063",
    }],
  "pageIndex": 1,
  "pageUnit": 10,
  "totalCount": 1580,
  "searchCnd": "all",
  "searchKrwd": "",
  "status": "OK"
}